location,latitude,longitude
Bhopal (City Center/New Market Area),23.2599,77.4126
Gehu Kheda (Kolar Road),23.1664,77.4124
Bagmugaliya,23.19,77.4769
MP Nagar (Zone I & II),23.2321,77.43
Ayodhya Bypass,23.2985,77.4326
Peer Gate Area (Old City),23.26,77.4024
Karond (Chauraha Area),23.3131,77.3953
Lalgathi,23.2773,77.364
Mahawadiya,23.117,77.3953
